{
    "locations": [
		{
			"id": "101320",
			"lat": 39.75023231,
			"lng": -86.13031932,
			"title": "Fountain Square - Phillips 66",
			"name": "Phillips 66",
			"country": "USA",
			"region": "Indiana",
			"state": "Indiana",
			"city": "Indianapolis",
			"street": "1225 S State Ave",
			"zipcode": "46203",
			"img": "https://www.getcoins.com/api/img/usa/in/IN_101320.jpg",
			"html": "<h3>Fountain Square - Phillips 66</h3><img src='https://www.getcoins.com/api/img/usa/in/IN_101320.jpg' class='img-responsive gc_map_info-window_img'><br /><p>1225 S State Ave<br> Indianapolis, IN 46203<br> <b>Mon-Sun:</b> 24 Hours<br><b>Buy</b> Bitcoin and Litecoin Here</p>",
			"zoom": 12,
			"hours":  [
				[[0, 24]],
				[[0, 24]],
				[[0, 24]],
				[[0, 24]],
				[[0, 24]],
				[[0, 24]],
				[[0, 24]]
			]
		},
		{
			"id": "101325",
			"lat": 39.7874521,
			"lng": -86.2011901,
			"title": "16th & Lafayette - Phillips 66",
			"name": "Phillips 66",
			"country": "USA",
			"region": "Indiana",
			"state": "Indiana",
			"city": "Indianapolis",
			"street": "2411 W 16th Street",
			"zipcode": "46222",
			"img": "https://www.getcoins.com/api/img/usa/in/IN_101325.jpg",
			"html": "<h3>16th & Lafayette - Phillips 66</h3><img src='https://www.getcoins.com/api/img/usa/in/IN_101325.jpg' class='img-responsive gc_map_info-window_img'><br /><p>2411 W 16th Street<br> Indianapolis, IN 46222<br> <b>Mon-Sun:</b> 24 Hours<br><b>Buy</b> Bitcoin and Litecoin Here</p>",
			"zoom": 12,
			"hours":  [
				[[0, 24]],
				[[0, 24]],
				[[0, 24]],
				[[0, 24]],
				[[0, 24]],
				[[0, 24]],
				[[0, 24]]
			]
		},
		{
			"id": "101315",
			"lat": 39.79500030,
			"lng": -86.11751580,
			"title": "i70 & N Rural St - Shell Gas Station",
			"name": "Shell Gas Station",
			"country": "USA",
			"region": "Indiana",
			"state": "Indiana",
			"city": "Indianapolis",
			"street": "2705 Bloyd Ave",
			"zipcode": "46218",
			"img": "https://www.getcoins.com/api/img/usa/in/IN_101315.jpg",
			"html": "<h3>i70 & N Rural St - Shell Gas Station</h3><img src='https://www.getcoins.com/api/img/usa/in/IN_101315.jpg' class='img-responsive gc_map_info-window_img'><br /><p>2705 Bloyd Ave<br> Indianapolis, IN 46218<br> <b>Mon-Sun:</b> 24 Hours<br><b>Buy</b> Bitcoin and Litecoin Here</p>",
			"zoom": 12,
			"hours":  [
				[[0, 24]],
				[[0, 24]],
				[[0, 24]],
				[[0, 24]],
				[[0, 24]],
				[[0, 24]],
				[[0, 24]]
			]
		},
		{
			"id": "101301",
			"lat": 39.82449710,
			"lng": -86.23472210,
			"title": "38th & Lafeyette - Phillips 66 Gas Station",
			"name": "Phillips 66 Gas Station",
			"country": "USA",
			"region": "Indiana",
			"state": "Indiana",
			"city": "Indianapolis",
			"street": "3801 Lafayette Rd",
			"zipcode": "46254",
			"img": "https://i.imgur.com/GUZ6BAB.png",
			"html": "<h3>38th & Lafeyette - Phillips 66 Gas Station</h3><img src='https://www.getcoins.com/api/img/usa/in/IN_101301.jpg' class='img-responsive gc_map_info-window_img'><br /><p>3801 Lafayette Rd<br> Indianapolis, IN 46254<br> <b>Mon-Sun:</b> 24 Hours<br><b>Buy</b> Bitcoin and Litecoin Here</p>",
			"zoom": 12,
			"hours":  [
				[[0, 24]],
				[[0, 24]],
				[[0, 24]],
				[[0, 24]],
				[[0, 24]],
				[[0, 24]],
				[[0, 24]]
			]
		},
		{
			"id": "101304",
			"lat": 41.75846820,
			"lng": -87.62431410,
			"title": "75th & Dan Ryan - Shell Gas Station",
			"name": "Shell Gas Station",
			"country": "USA",
			"region": "Illinois",
			"state": "Illinois",
			"city": "Chicago",
			"street": "7453 S State St",
			"zipcode": "60619",
			"img":"https://i.imgur.com/6iOXpAx.jpg",
			"html": "<h3>75th & Dan Ryan - Shell Gas Station</h3><img src='https://www.getcoins.com/api/img/usa/il/IL_101304.jpg' class='img-responsive gc_map_info-window_img'><br /><p>7453 S State St<br> Chicago, IL 60619<br> <b>Mon-Sun:</b> 24 Hours<br> <b>Buy</b> Bitcoin and Litecoin Here</p>",
			"zoom": 12,
			"hours": [
			[[0, 24]],
			[[0, 24]],
			[[0, 24]],
			[[0, 24]],
			[[0, 24]],
			[[0, 24]],
			[[0, 24]]
			]
		},
		{
			"id": "101309",
			"lat": 42.04115400,
			"lng": -87.70732880,
			"title": "Harlem & i90 - Shell Gas Station",
			"name": "Shell Gas Station",
			"country": "USA",
			"region": "Illinois",
			"state": "Illinois",
			"city": "Chicago",
			"street": "7201 W Higgins Ave",
			"zipcode": "60656",
			"img":"https://i.imgur.com/M3PHwcN.jpg",
			"html": "<h3>Harlem & i90 - Shell Gas Station</h3><img src='https://www.getcoins.com/api/img/usa/il/IL_101309.jpg' class='img-responsive gc_map_info-window_img'><br /><p>7201 W Higgins Ave<br> Chicago, IL 60656<br> <b>Mon-Sun:</b> 24 Hours<br> <b>Buy</b> Bitcoin and Litecoin Here</p>",
			"zoom": 12,
			"hours": [
			[[0, 24]],
			[[0, 24]],
			[[0, 24]],
			[[0, 24]],
			[[0, 24]],
			[[0, 24]],
			[[0, 24]]
			]
		},
		{
			"id": "101334",
			"lat": 42.04115400,
			"lng": -87.70732880,
			"title": "Evanston - Exxon Gas Station",
			"name": "Exxon Gas Station",
			"country": "USA",
			"region": "Illinois",
			"state": "Illinois",
			"city": "Evanston",
			"street": "2401 Dempster Street",
			"zipcode": "60201",
			"img":"https://i.imgur.com/q7yRGyj.jpg",
			"html": "<h3>Evanston - Exxon Gas Station</h3><img src='https://www.getcoins.com/api/img/usa/il/IL_101334.jpg' class='img-responsive gc_map_info-window_img'><br /><p>2401 Dempster St<br> Evanston, IL 60201<br> <b>Mon-Sun:</b> 24 Hours<br> <b>Buy</b> Bitcoin and Litecoin Here</p>",
			"zoom": 12,
			"hours": [
			[[0, 24]],
			[[0, 24]],
			[[0, 24]],
			[[0, 24]],
			[[0, 24]],
			[[0, 24]],
			[[0, 24]]
			]
		},
		{
			"id": "101300",
			"lat": 42.0114877,
			"lng": -87.7548441,
			"title": "Touhy & i94 - Shell Gas Station",
			"name": "Shell Gas Station",
			"country": "USA",
			"region": "Illinois",
			"state": "Illinois",
			"city": "Skokie",
			"street": "5055 W Touhy Ave",
			"zipcode": "60077",
			"img":"https://i.imgur.com/z7PGPom.jpg",
			"html": "<h3>Touhy & i94 - Shell Gas Station</h3><img src='https://www.getcoins.com/api/img/usa/il/IL_101300.jpg' class='img-responsive gc_map_info-window_img'><br /><p>5055 W Touhy Ave<br> Skokie, IL 60077<br> <b>Mon-Sun:</b> 24 Hours<br> <b>Buy</b> Bitcoin and Litecoin Here</p>",
			"zoom": 12,
			"hours": [
			[[0, 24]],
			[[0, 24]],
			[[0, 24]],
			[[0, 24]],
			[[0, 24]],
			[[0, 24]],
			[[0, 24]]
			]
		},
		{
			"id": "100110",
  			"lat": 42.34368642,
  			"lng": -83.21537053,
  			"title": "Warren & Southfield - Shell Gas Station",
  			"name": "Shell Gas Station",
			  "country": "USA",
  			"region": "Michigan",
  			"state": "Michigan",
  			"city": "Detroit",
  			"street": "17720 W Warren Ave",
  			"zipcode": "48228",
  			"img":"https://i.imgur.com/gItJO3L.jpg",
  			"html": "<h3>Warren & Southfield - Shell Gas Station</h3><img src='https://www.getcoins.com/api/img/usa/mi/MI_100110.jpg' class='img-responsive gc_map_info-window_img'><br /><p>17720 W Warren Ave<br> Detroit, MI 48228<br> <b>Mon-Sun:</b> 24 Hours<br> <b>Buy</b> Bitcoin and Litecoin Here</p>",
  			"zoom": 12,
  			"hours": [
  				[[0, 24]],
  				[[0, 24]],
  				[[0, 24]],
  				[[0, 24]],
  				[[0, 24]],
  				[[0, 24]],
  				[[0, 24]]
  			]
  		},
		{
  			"id": "101307",
  			"lat": 39.99163776,
  			"lng": -83.00626874,
  			"title": "Columbus - High Up Head Shop",
  			"name": "High Up Head Shop",
			  "country": "USA",
  			"region": "Ohio",
  			"state": "Ohio",
  			"city": "Columbus",
  			"street": "1434 N High St",
  			"zipcode": "43201",
  			"img":"https://i.imgur.com/CGS6jMz.png",
  			"html": "<h3>Columbus - High Up Head Shop</h3><img src='https://www.getcoins.com/api/img/usa/oh/OH_101307.jpg' class='img-responsive gc_map_info-window_img'><br /><p>1434 N High St<br> Columbus, OH 43201<br> <b>Mon-Thurs:</b> 11:00 am - 10:00 pm<br><b>Fri-Sat:</b> 11:00 am - 11:00 pm<br><b>Sun:</b> 12:00 pm - 9:00 pm<br> <b>Buy</b> Bitcoin and Litecoin Here</p>",
  			"zoom": 12,
  			"hours": [
  				[[12, 21]],
  				[[11, 22]],
  				[[11, 22]],
  				[[11, 22]],
  				[[11, 22]],
  				[[11, 23]],
  				[[11, 23]]
  			]
  		},
		{
  			"id": "101319",
  			"lat": 39.79638200,
  			"lng": -86.00902900,
  			"title": "i70 & N Post Rd - Shell Gas Station",
  			"name":"Shell Gas Station",
			  "country": "USA",
  			"region": "Indiana",
  			"state": "Indiana",
  			"city": "Indianapolis",
  			"street": "2045 N Post Rd",
  			"zipcode": "46219",
  			"img":"https://i.imgur.com/tfyReeF.jpg",
  			"html": "<h3>i70 & N Post Rd - Shell Gas Station</h3><img src='https://www.getcoins.com/api/img/usa/in/IN_101319.jpg' class='img-responsive gc_map_info-window_img'><br /><p>2045 N Post Rd<br> Indianapolis, IN 46219<br> <b>Mon-Sun:</b> 24 Hours<br> <b>Buy</b> Bitcoin and Litecoin Here</p>",
  			"zoom": 12,
  			"hours": [
  				[[0, 24]],
  				[[0, 24]],
  				[[0, 24]],
  				[[0, 24]],
  				[[0, 24]],
  				[[0, 24]],
  				[[0, 24]]
  			]
		  },
		{
  			"id": "101332",
  			"lat": 41.58830200,
  			"lng": -87.33665000,
  			"title": "1489 Broadway - Mobil Gas Station",
  			"name":"Mobil Gas Station",
			  "country": "USA",
  			"region": "Indiana",
  			"state": "Indiana",
  			"city": "Gary",
  			"street": "1489 Broadway",
  			"zipcode": "46407",
  			"img":"https://i.imgur.com/oOSSny2.jpg",
  			"html": "<h3>1489 Broadway - Mobil Gas Station</h3><img src='https://www.getcoins.com/api/img/usa/in/IN_101332.jpg' class='img-responsive gc_map_info-window_img'><br /><p>1489 Broadway<br> Gary, IN 46407<br> <b>Mon-Sun:</b> 24 Hours<br> <b>Buy</b> Bitcoin and Litecoin Here</p>",
  			"zoom": 12,
  			"hours": [
  				[[0, 24]],
  				[[0, 24]],
  				[[0, 24]],
  				[[0, 24]],
  				[[0, 24]],
  				[[0, 24]],
  				[[0, 24]]
  			]
		},
		{
  			"id": "101335",
  			"lat": 41.88287200,
  			"lng": -87.88291900,
  			"title": "4019 Butterfield Rd - Mr. Submarine",
  			"name":"Mr. Submarine",
			  "country": "USA",
  			"region": "Illinois",
  			"state": "Illinois",
  			"city": "Bellwood",
  			"street": "4019 Butterfield Rd",
  			"zipcode": "60104",
  			"img":"https://i.imgur.com/GMC7ueJ.jpg",
  			"html": "<h3>4019 Butterfield Rd - Mr. Submarine</h3><img src='https://www.getcoins.com/api/img/usa/il/IL_101335.jpg' class='img-responsive gc_map_info-window_img'><br /><p>4019 Butterfield Rd<br> Bellwood, IL 60104<br> <b>Mon-Thurs:</b> 9:00 am - 3:00 am<br><b>Fri-Sat:</b> 9:00 am - 4:00 am<br><b>Sun:</b> 10:00 am - 3:00 am<br> <b>Buy</b> Bitcoin and Litecoin Here</p>",
  			"zoom": 12,
  			"hours": [
  				[[0, 4],[10, 24]],
  				[[0, 3],[9, 24]],
  				[[0, 3],[9, 24]],
  				[[0, 3],[9, 24]],
  				[[0, 3],[9, 24]],
  				[[0, 4],[9, 24]],
  				[[0, 4],[9, 24]]
  			]
		},
		{
  			"id": "101312",
  			"lat": 41.75053600,
  			"lng": -87.66387200,
  			"title": "79th & Ashland Ave - Nick's Gyros",
  			"name":"Nick's Gyros",
			  "country": "USA",
  			"region": "Illinois",
  			"state": "Illinois",
  			"city": "Chicago",
  			"street": "7858 S Ashland Ave",
  			"zipcode": "60620",
  			"img":"https://i.imgur.com/awKp20z.jpg",
  			"html": "<h3>79th & Ashland Ave - Nick's Gyros</h3><img src='https://www.getcoins.com/api/img/usa/il/IL_101312.jpg' class='img-responsive gc_map_info-window_img'><br /><p>7858 S Ashland Ave<br> Chicago, IL 60620<br> <b>Mon-Thurs:</b> 10:00 am - 2:00 am<br><b>Fri-Sat:</b> 10:00 am - 4:00 am<br><b>Sun:</b> 11:00 am - 2:00 am<br> <b>Buy</b> Bitcoin and Litecoin Here</p>",
  			"zoom": 12,
  			"hours": [
  				[[0, 4],[11, 24]],
  				[[0, 2],[10, 24]],
  				[[0, 2],[10, 24]],
  				[[0, 2],[10, 24]],
  				[[0, 2],[10, 24]],
  				[[0, 2],[10, 24]],
  				[[0, 4],[10, 24]]
  			]
		},
		{
  			"id": "101313",
  			"lat": 41.71552000,
  			"lng": -87.64329800,
  			"title": "98th St & Halsted St - Shell Gas Station",
  			"name":"Shell Gas Station",
			  "country": "USA",
  			"region": "Illinois",
  			"state": "Illinois",
  			"city": "Chicago",
  			"street": "9802 S Halsted St",
  			"zipcode": "60628",
  			"img":"https://i.imgur.com/VtjjZXK.jpg",
  			"html": "<h3>98th St & Halsted St - Shell Gas Station</h3><img src='https://www.getcoins.com/api/img/usa/il/IL_101313.jpg' class='img-responsive gc_map_info-window_img'><br /><p>9802 S Halstted St<br> Chicago, IL 60628<br> <b>Mon-Sun:</b> 24 Hours<br> <b>Buy</b> Bitcoin and Litecoin Here</p>",
  			"zoom": 12,
  			"hours": [
  				[[0, 24]],
  				[[0, 24]],
  				[[0, 24]],
  				[[0, 24]],
  				[[0, 24]],
  				[[0, 24]],
  				[[0, 24]]
  			]
		},
		{
  			"id": "101333",
  			"lat": 41.69265900,
  			"lng": -87.60132700,
  			"title": "111th St & Corliss Ave - Shell Gas Station",
  			"name":"Shell Gas Station",
			  "country": "USA",
  			"region": "Illinois",
  			"state": "Illinois",
  			"city": "Chicago",
  			"street": "11100 Corliss Ave",
  			"zipcode": "60628",
  			"img":"https://i.imgur.com/0WIkZGm.jpg",
  			"html": "<h3>111th St & Corliss Ave - Shell Gas Station</h3><img src='https://www.getcoins.com/api/img/usa/il/IL_101333.jpg' class='img-responsive gc_map_info-window_img'><br /><p>11100 Corliss Ave<br> Chicago, IL 60628<br> <b>Mon-Sun:</b> 24 Hours<br> <b>Buy</b> Bitcoin and Litecoin Here</p>",
  			"zoom": 12,
  			"hours": [
  				[[0, 24]],
  				[[0, 24]],
  				[[0, 24]],
  				[[0, 24]],
  				[[0, 24]],
  				[[0, 24]],
  				[[0, 24]]
  			]
		},
		{
  			"id": "101305",
  			"lat": 41.56337500,
  			"lng": -87.63576200,
  			"title": "179th & Halsted - Shell Gas Station",
  			"name":"Shell Gas Station",
			  "country": "USA",
  			"region": "Illinois",
  			"state": "Illinois",
  			"city": "Homewood",
  			"street": "17951 Halsted St",
  			"zipcode": "60430",
  			"img":"https://i.imgur.com/moLcIbS.jpg",
  			"html": "<h3>179th & Halsted - Shell Gas Station</h3><img src='https://www.getcoins.com/api/img/usa/il/IL_101305.jpg' class='img-responsive gc_map_info-window_img'><br /><p>17951 Halsted St<br> Homewood, IL 60430<br> <b>Mon-Sun:</b> 24 Hours<br> <b>Buy</b> Bitcoin and Litecoin Here</p>",
  			"zoom": 12,
  			"hours": [
  				[[0, 24]],
  				[[0, 24]],
  				[[0, 24]],
  				[[0, 24]],
  				[[0, 24]],
  				[[0, 24]],
  				[[0, 24]]
  			]
		},
		{
  			"id": "101310",
  			"lat": 41.89066100,
  			"lng": -87.66685800,
  			"title": "Grand & Ashland - Citgo Gas Station",
  			"name":"Citgo Gas Station",
			  "country": "USA",
  			"region": "Illinois",
  			"state": "Illinois",
  			"city": "Chicago",
  			"street": "1535 W Grand Ave",
  			"zipcode": "60642",
  			"img":"https://i.imgur.com/drY6tSl.jpg",
  			"html": "<h3>Grand & Ashland - Citgo Gas Station</h3><img src='https://www.getcoins.com/api/img/usa/il/IL_101310.jpg' class='img-responsive gc_map_info-window_img'><br /><p>1535 W Grand Ave<br> Chicago, IL 60642<br> <b>Mon-Sun:</b> 24 Hours<br> <b>Buy</b> Bitcoin and Litecoin Here</p>",
  			"zoom": 12,
  			"hours": [
  				[[0, 24]],
  				[[0, 24]],
  				[[0, 24]],
  				[[0, 24]],
  				[[0, 24]],
  				[[0, 24]],
  				[[0, 24]]
  			]
		},
		{
  			"id": "101311",
  			"lat": 41.58603400,
  			"lng": -87.55918800,
  			"title": "170th st & Torrence Ave - BP Gas Station",
  			"name": "BP Gas Station",
			  "country": "USA",
  			"region": "Illinois",
  			"state": "Illinois",
  			"city": "Lansing",
  			"street": "17002 Torrence Ave",
  			"zipcode": "60438",
  			"img": "https://i.imgur.com/4fsD1oo.jpg",
  			"html": "<h3>170th st & Torrence Ave - BP Gas Station</h3><img src='https://www.getcoins.com/api/img/usa/il/IL_101311.jpg' class='img-responsive gc_map_info-window_img'><br /><p>17002 Torrence Ave<br> Lansing, IL 60438<br> <b>Mon-Sun:</b> 24 Hours<br> <b>Buy</b> Bitcoin and Litecoin Here</p>",
  			"zoom": 12,
  			"hours": [
  				[[0, 24]],
  				[[0, 24]],
  				[[0, 24]],
  				[[0, 24]],
  				[[0, 24]],
  				[[0, 24]],
  				[[0, 24]]
  			]
		},
		{
  			"id": "101322",
  			"lat": 41.76626800,
  			"lng": -88.14906200,
  			"title": "659 S Washington St - Shell Gas Station",
  			"name": "Shell Gas Station",
			  "country": "USA",
  			"region": "Illinois",
  			"state": "Illinois",
  			"city": "Naperville",
  			"street": "659 S Washington St",
  			"zipcode": "60540",
  			"img":"https://i.imgur.com/gm6aqF9.png",
  			"html": "<h3>659 S Washington St - Shell Gas Station</h3><img src='https://www.getcoins.com/api/img/usa/il/IL_101322.jpg' class='img-responsive gc_map_info-window_img'><br /><p>659 S Washington St<br> Naperville, IL 60540<br> <b>Mon-Sun:</b> 6:00 am - 10:00 pm<br> <b>Buy</b> Bitcoin and Litecoin Here</p>",
  			"zoom": 12,
  			"hours": [
  				[[6, 22]],
  				[[6, 22]],
  				[[6, 22]],
  				[[6, 22]],
  				[[6, 22]],
  				[[6, 22]],
  				[[6, 22]]
  			]
		},
		{
  			"id": "101306",
  			"lat": 41.79491300,
  			"lng": -87.63336800,
  			"title": "Garfield & Dan Ryan - Falcon Fuel",
  			"name": "Falcon Fuel",
			  "country": "USA",
  			"region": "Illinois",
  			"state": "Illinois",
  			"city": "Chicago",
  			"street": "300 W Garfield Blvd",
  			"zipcode": "60609",
  			"img":"https://i.imgur.com/LjnJUZo.jpg",
  			"html": "<h3>Garfield & Dan Ryan - Falcon Fuel</h3><img src='https://www.getcoins.com/api/img/usa/il/IL_101306.jpg' class='img-responsive gc_map_info-window_img'><br /><p>300 W Garfield Blvd<br> Chicago, IL 60609<br> <b>Mon-Sun:</b> 24 Hours<br> <b>Buy</b> Bitcoin and Litecoin Here</p>",
  			"zoom": 12,
  			"hours": [
  				[[0, 24]],
  				[[0, 24]],
  				[[0, 24]],
  				[[0, 24]],
  				[[0, 24]],
  				[[0, 24]],
  				[[0, 24]]
  			]
		},
		{
  			"id": "101331",
  			"lat": 41.89520200,
  			"lng": -87.72090000,
  			"title": "W Chicago & Hamlin - Amstar Gas Station",
  			"name":"Amstar Gas Station",
			  "country": "USA",
  			"region": "Illinois",
  			"state": "Illinois",
  			"city": "Chicago",
  			"street": "3759 W Chicago Ave",
  			"zipcode": "60651",
  			"img":"https://i.imgur.com/kIi2TBW.jpg",
  			"html": "<h3>W Chicago & Hamlin - Amstar Gas Station</h3><img src='https://www.getcoins.com/api/img/usa/il/IL_101331.jpg' class='img-responsive gc_map_info-window_img'><br /><p>3759 W Chicago Ave<br> Chicago, IL 60651<br> <b>Mon-Sun:</b> 24 Hours<br> <b>Buy</b> Bitcoin and Litecoin Here</p>",
  			"zoom": 12,
  			"hours": [
  				[[0, 24]],
  				[[0, 24]],
  				[[0, 24]],
  				[[0, 24]],
  				[[0, 24]],
  				[[0, 24]],
  				[[0, 24]]
  			]
		},
		{
  			"id": "101329",
  			"lat": 41.71120300,
  			"lng": -88.06930700,
  			"title": "Bolingbrook Rd & Boughton Rd - Citgo Gas Station",
  			"name":"Citgo Gas Station",
			  "country": "USA",
  			"region": "Illinois",
  			"state": "Illinois",
  			"city": "Bolingbrook",
  			"street": "102 W Boughton Rd",
  			"zipcode": "60440",
  			"img":"https://i.imgur.com/2vccBYA.png",
  			"html": "<h3>Bolingbrook Rd & Boughton Rd - Citgo Gas Station</h3><img src='https://www.getcoins.com/api/img/usa/il/IL_101314.jpg' class='img-responsive gc_map_info-window_img'><br /><p>102 W Boughton Rd<br> Bolingbrook, IL 60440<br> <b>Mon-Sun:</b> 6:00 am - 12:00 am <br> <b>Buy</b> Bitcoin and Litecoin Here</p>",
  			"zoom": 12,
  			"hours": [
  				[[6, 24]],
  				[[6, 24]],
  				[[6, 24]],
  				[[6, 24]],
  				[[6, 24]],
  				[[6, 24]],
  				[[6, 24]]
  			]
		},
		{
  			"id": "101314",
  			"lat": 41.46893200,
  			"lng": -81.76847100,
  			"title": "i90 & 117th St - BP Gas Station",
  			"name":"BP Gas Station",
			  "country": "USA",
  			"region": "Ohio",
  			"state": "Ohio",
  			"city": "Cleveland",
  			"street": "3065 W 117th St",
  			"zipcode": "44111",
  			"img":"https://i.imgur.com/ewlAXg0.png",
  			"html": "<h3>i90 & 117th St - BP Gas Station</h3><img src='https://www.getcoins.com/api/img/usa/oh/OH_101314.jpg' class='img-responsive gc_map_info-window_img'><br /><p>3065 W 117th St<br> Cleveland, OH 44111 <br> <b>Mon-Sun:</b> 24 Hours <br> <b>Buy</b> Bitcoin and Litecoin Here</p>",
  			"zoom": 12,
  			"hours": [
  				[[0, 24]],
  				[[0, 24]],
  				[[0, 24]],
  				[[0, 24]],
  				[[0, 24]],
  				[[0, 24]],
  				[[0, 24]]
  			]
		},
		{
  			"id": "101299",
  			"lat": 41.86643600,
  			"lng": -87.72464200,
  			"title": "Roosevelt & Pulaski - Shell Gas Station",
  			"name":"Shell Gas Station",
			  "country": "USA",
  			"region": "Illinois",
  			"state": "Illinois",
  			"city": "Chicago",
  			"street": "3942 W Roosevelt Rd",
  			"zipcode": "60624",
  			"img":"https://i.imgur.com/5f7HxcJ.png",
  			"html": "<h3>Roosevelt & Pulaski - Shell Gas Station</h3><img src='https://www.getcoins.com/api/img/usa/il/IL_101299.jpg' class='img-responsive gc_map_info-window_img'><br /><p>3942 W Roosevelt Rd<br> Chicago, IL 60624 <br> <b>Mon-Sun:</b> 24 Hours <br> <b>Buy</b> Bitcoin and Litecoin Here</p>",
  			"zoom": 12,
  			"hours": [
  				[[0, 24]],
  				[[0, 24]],
  				[[0, 24]],
  				[[0, 24]],
  				[[0, 24]],
  				[[0, 24]],
  				[[0, 24]]
  			]
		},
		{
  			"id": "101327",
  			"lat": 41.60513100,
  			"lng": -81.47516300,
  			"title": "Euclid & Lloyd - Sunoco Gas Station",
  			"name":"Sunoco Gas Station",
			  "country": "USA",
  			"region": "Ohio",
  			"state": "Ohio",
  			"city": "Wickliffe",
  			"street": "29200 Euclid Ave",
  			"zipcode": "44092",
  			"img":"https://i.imgur.com/5IN9g1z.png",
  			"html": "<h3>Euclid & Lloyd - Sunoco Gas Station</h3><img src='https://www.getcoins.com/api/img/usa/oh/OH_101327.jpg' class='img-responsive gc_map_info-window_img'><br /><p>29200 Euclid Ave<br> Wickliffe, OH 44092 <br> <b>Mon-Sun:</b> 24 Hours <br> <b>Buy</b> Bitcoin and Litecoin Here</p>",
  			"zoom": 12,
  			"hours": [
  				[[0, 24]],
  				[[0, 24]],
  				[[0, 24]],
  				[[0, 24]],
  				[[0, 24]],
  				[[0, 24]],
  				[[0, 24]]
  			]
		},
		{
  			"id": "101330",
  			"lat": 41.41686100,
  			"lng": -81.60631700,
  			"title": "Turney & Granger - Sunoco Gas Station",
  			"name":"Sunoco Gas Station",
			  "country": "USA",
  			"region": "Ohio",
  			"state": "Ohio",
  			"city": "Garfield Heights",
  			"street": "5326 Turney Rd",
  			"zipcode": "44125",
  			"img":"https://i.imgur.com/4bMGr0u.png",
  			"html": "<h3>Turney & Granger - Sunoco Gas Station</h3><img src='https://www.getcoins.com/api/img/usa/oh/OH_101330.jpg' class='img-responsive gc_map_info-window_img'><br /><p>5326 Turney Rd<br> Garfield Heights, OH 44125 <br> <b>Mon-Sun:</b> 24 Hours <br> <b>Buy</b> Bitcoin and Litecoin Here</p>",
  			"zoom": 12,
  			"hours": [
  				[[0, 24]],
  				[[0, 24]],
  				[[0, 24]],
  				[[0, 24]],
  				[[0, 24]],
  				[[0, 24]],
  				[[0, 24]]
  			]
		},
		{
  			"id": "101342",
  			"lat": 42.40069000,
  			"lng": -83.21762600,
  			"title": "Grand River & Southfield - BP Gas Station",
  			"name": "BP Gas Station",
			  "country": "USA",
  			"region": "Michigan",
  			"state": "Michigan",
  			"city": "Detroit",
  			"street": "17776 Grand River Ave",
  			"zipcode": "48227",
  			"img":"https://i.imgur.com/mWRYZju.png",
  			"html": "<h3>Grand River & Southfield - BP Gas Station</h3><img src='https://www.getcoins.com/api/img/usa/mi/MI_101342.jpg' class='img-responsive gc_map_info-window_img'><br /><p>17776 Grand River Ave<br> Detroit, MI 48227 <br> <b>Mon-Sun:</b> 24 Hours <br> <b>Buy</b> Bitcoin and Litecoin Here</p>",
  			"zoom": 12,
  			"hours": [
  				[[0, 24]],
  				[[0, 24]],
  				[[0, 24]],
  				[[0, 24]],
  				[[0, 24]],
  				[[0, 24]],
  				[[0, 24]]
  			]
		},
		{
  			"id": "101338",
  			"lat": 42.48109300,
  			"lng": -83.477627000,
  			"title": "Grand River & Novi Rd - Sunoco Gas Station",
  			"name":"Sunoco Gas Station",
			  "country": "USA",
  			"region": "Michigan",
  			"state": "Michigan",
  			"city": "Novi",
  			"street": "43601 Grand River Ave",
  			"zipcode": "48377",
  			"img":"https://i.imgur.com/HTMCHJR.png",
  			"html": "<h3>Grand River & Novi Rd - Sunoco Gas Station</h3><img src='https://www.getcoins.com/api/img/usa/mi/MI_101338.jpg' class='img-responsive gc_map_info-window_img'><br /><p>43601 Grand River Ave<br> Novi, MI 48377 <br> <b>Mon-Sun:</b> 6:00 am - 10:00 pm <br> <b>Buy</b> Bitcoin and Litecoin Here</p>",
  			"zoom": 12,
  			"hours": [
  				[[6, 22]],
  				[[6, 22]],
  				[[6, 22]],
  				[[6, 22]],
  				[[6, 22]],
  				[[6, 22]],
  				[[6, 22]]
  			]
		},
		{
  			"id": "101337",
  			"lat": 41.46749500,
  			"lng": -81.60322800,
  			"title": "116th & Kinsman - Gas & Food Mart",
  			"name":"Gas & Food Mart",
			  "country": "USA",
  			"region": "Ohio",
  			"state": "Ohio",
  			"city": "Cleveland",
  			"street": "3350 E 116th St",
  			"zipcode": "44120",
  			"img":"https://i.imgur.com/chdxfBu.png",
  			"html": "<h3>116th & Kinsman - Gas & Food Mart</h3><img src='https://www.getcoins.com/api/img/usa/oh/OH_101337.jpg' class='img-responsive gc_map_info-window_img'><br /><p>3350 E 116th St<br> Cleveland, OH 44120 <br> <b>Mon-Sun:</b> 9:00 am - 9:00 pm <br> <b>Buy</b> Bitcoin and Litecoin Here</p>",
  			"zoom": 12,
  			"hours": [
  				[[9, 21]],
  				[[9, 21]],
  				[[9, 21]],
  				[[9, 21]],
  				[[9, 21]],
  				[[9, 21]],
  				[[9, 21]]
  			]
		},
		{
			"id": "100929",
			"lat": 41.736053,
			"lng": -87.623866,
			"title": "87th St & Dan Ryan - BP Gas Station",
			"name":"BP Gas Station",
			"country": "USA",
			"region": "Illinois",
			"state": "Illinois",
			"city": "Chicago",
			"street": "8701 S State St",
			"zipcode": "60619",
			"img":"https://i.imgur.com/JLCvxAH.jpg",
			"html": "<h3>87th St & Dan Ryan - BP Gas Station</h3><img src='https://www.getcoins.com/api/img/usa/il/IL_100929.jpg' class='img-responsive gc_map_info-window_img'><br /><p>8701 S State St<br> Chicago, IL 60619 <br> <b>Mon-Sun:</b> 24 Hours <br><b>Buy</b> and <b>Sell</b> Bitcoin and Litecoin Here</p>",
			"zoom": 12,
			"hours": [
				[[0, 24]],
				[[0, 24]],
				[[0, 24]],
				[[0, 24]],
				[[0, 24]],
				[[0, 24]],
				[[0, 24]]
			]
		},
		{
			"id": "101328",
			"lat": 42.50955600,
			"lng": -82.92795000,
			"title": "12 Mile & Gratiot - Mobil Gas Station",
			"name":"Mobil Gas Station",
			"country": "USA",
			"region": "Michigan",
			"state": "Michigan",
			"city": "Roseville",
			"street": "28890 Gratiot Ave",
			"zipcode": "48066",
			"img":"https://i.imgur.com/m00TK6G.png",
			"html": "<h3>12 Mile & Gratiot - Mobil Gas Station</h3><img src='https://www.getcoins.com/api/img/usa/mi/MI_101328.jpg' class='img-responsive gc_map_info-window_img'><br /><p>28890 Gratiot Ave<br> Roseville, MI 48066 <br> <b>Mon-Sun:</b> 24 Hours <br> <b>Buy</b> Bitcoin and Litecoin Here </p>",
			"zoom": 12,
			"hours": [
				[[0, 24]],
				[[0, 24]],
				[[0, 24]],
				[[0, 24]],
				[[0, 24]],
				[[0, 24]],
				[[0, 24]]
			]
		},
		{
			"id": "101308",
			"lat": 41.41917000,
			"lng": -81.71059400,
			"title": "Outerbelt Fwy & State Rd - Sunoco Gas Station",
			"name": "Sunoco Gas Station",
			"country": "USA",
			"region": "Illinois",
			"state": "Illinois",
			"city": "Chicago",
			"street": "3500 Brookpark Rd",
			"zipcode": "44134",
			"img":"https://i.imgur.com/b4EsGR7.png",
			"html": "<h3>Outerbelt Fwy & State Rd - Sunoco Gas Station</h3><img src='https://www.getcoins.com/api/img/usa/il/IL_101308.jpg' class='img-responsive gc_map_info-window_img'><br /><p>3500 Brookpark Rd<br> Cleveland, OH 44134 <br> <b>Sun-Thurs:</b> 5:30 am - Midnight<br> <b> Fri-Sat:</b> 5:30 am - 1:00 am <br> <b>Buy</b> Bitcoin and Litecoin Here </p>",
			"zoom": 12,
			"hours": [
				[[0, 1],[5.5, 24]],
				[[5.5, 24]],
				[[5.5, 24]],
				[[5.5, 24]],
				[[5.5, 24]],
				[[5.5, 24]],
				[[0, 1],[5.5, 24]]
			]
		},
		{
			"id": "101318",
			"lat": 41.49977400,
			"lng": -81.66638600,
			"title": "30th & Carnegie - Shell Gas Station",
			"name": "Shell Gas Station",
			"country": "USA",
			"region": "Ohio",
			"state": "Ohio",
			"city": "Cleveland",
			"street": "3020 Carnegie Ave",
			"zipcode": "44115",
			"img":"https://i.imgur.com/jWwpC8l.png",
			"html": "<h3>30th & Carnegie - Shell Gas Station</h3><img src='https://www.getcoins.com/api/img/usa/oh/OH_101318.jpg' class='img-responsive gc_map_info-window_img'><br /><p>3020 Carnegie Ave<br> Cleveland, OH 44115 <br> <b>Mon-Sun:</b> 24 Hours <br><b>Buy</b> Bitcoin and Litecoin Here</p>",
			"zoom": 12,
			"hours": [
				[[0, 24]],
				[[0, 24]],
				[[0, 24]],
				[[0, 24]],
				[[0, 24]],
				[[0, 24]],
				[[0, 24]]
			]
		},
		{
			"id": "101324",
			"lat": 41.42383200,
			"lng": -81.90073300,
			"title": "25193 Lorain Rd, Vitrum Smoke Shop",
			"name": "Vitrum Smoke Shop",
			"country": "USA",
			"region": "Ohio",
			"state": "Ohio",
			"city": "North Olmsted",
			"street": "25193 Lorain Rd",
			"zipcode": "44070",
			"img":"https://i.imgur.com/t8ySgqB.png?1",
			"html": "<h3>Vitrum Smoke Shop</h3><img src='https://www.getcoins.com/api/img/usa/oh/OH_101324.jpg' class='img-responsive gc_map_info-window_img'><br /><p>25193 Lorain Rd<br> North Olmsted, OH 44070 <br> <b>Sun - Thurs:</b> 10:00 am - 11:00 pm <br> <b> Fri - Sat:</b> 10:00 am - 1:00 am <br> <b>Buy</b> Bitcoin and Litecoin Here </p>",
			"zoom": 12,
			"hours": [
				[[0, 1],[10, 23]],
				[[10, 23]],
				[[10, 23]],
				[[10, 23]],
				[[10, 23]],
				[[10, 24]],
				[[0, 1],[10, 24]]
			]
		},
		{
			"id": "101336",
			"lat": 41.46987800,
			"lng": -81.69085600,
			"title": "14th St & Clark Ave - Sunoco Gas Station",
			"name": "Sunoco Gas Station",
			"country": "USA",
			"region": "Ohio",
			"state": "Ohio",
			"city": "Cleveland",
			"street": "1303 Clark Ave",
			"zipcode": "44109",
			"img":"https://i.imgur.com/aNGOycI.png",
			"html": "<h3>14th St & Clark Ave - Sunoco Gas Station</h3><img src='https://www.getcoins.com/api/img/usa/oh/OH_101336.jpg' class='img-responsive gc_map_info-window_img'><br /><p>1303 Clark Ave <br> Cleveland, OH 44109<br> <b>Mon-Sun:</b> 24 Hours<br><b>Buy</b> Bitcoin and Litecoin Here </p>",
			"zoom": 12,
			"hours": [
				[[0, 24]],
				[[0, 24]],
				[[0, 24]],
				[[0, 24]],
				[[0, 24]],
				[[0, 24]],
				[[0, 24]]
			]
		},
		{
			"id": "101339",
			"lat": 42.39270600,
			"lng": -83.00613700,
			"title": "i94 & Gratiot Ave - Marathon Gas Station",
			"name": "Marathon Gas Station",
			"country": "USA",
			"region": "Michigan",
			"state": "Michigan",
			"city": "Detroit",
			"street": "9657 Gratiot Ave",
			"zipcode": "60619",
			"img":"https://i.imgur.com/Wy0ytVk.png",
			"html": "<h3>i94 & Gratiot Ave - Marathon Gas Station</h3><img src='https://www.getcoins.com/api/img/usa/mi/MI_101339.jpg' class='img-responsive gc_map_info-window_img'><br /><p>9657 Gratiot Ave <br> Detroit, MI 48213 <br> <b>Mon-Sun:</b> 24 Hours<br><b>Buy</b> Bitcoin and Litecoin Here </p>",
			"zoom": 12,
			"hours": [
				[[0, 24]],
				[[0, 24]],
				[[0, 24]],
				[[0, 24]],
				[[0, 24]],
				[[0, 24]],
				[[0, 24]]
			]
		},
		{
			"id": "100468",
			"lat": 42.44707600,
			"lng": -83.11984900,
			"title": "8 Mile & Woodward - BP Gas Station",
			"name":"BP Gas Station",
			"country": "USA",
			"region": "Michigan",
			"state": "Michigan",
			"city": "Ferndale",
			"street": "561 W 8 Mile Rd",
			"zipcode": "48220",
			"img":"https://i.imgur.com/0fBAWEN.png",
			"html": "<h3>8 Mile & Woodward - BP Gas Station</h3><img src='https://www.getcoins.com/api/img/usa/mi/MI_100468.jpg' class='img-responsive gc_map_info-window_img'><br /><p>561 W 8 Mile Rd <br> Ferndale, MI 48220 <br> <b>Mon-Sun:</b> 24 Hours<br><b>Buy</b> Bitcoin and Litecoin Here </p>",
			"zoom": 12,
			"hours": [
				[[0, 24]],
				[[0, 24]],
				[[0, 24]],
				[[0, 24]],
				[[0, 24]],
				[[0, 24]],
				[[0, 24]]
			]
		},
		{
			"id": "100475",
			"lat": 42.37678600,
			"lng": -83.07807700,
			"title": "Woodward & Euclid - Citgo Gas Station",
			"name": "Citgo Gas Station",
			"country": "USA",
			"region": "Michigan",
			"state": "Michigan",
			"city": "Detroit",
			"street": "8351 Woodward Ave",
			"zipcode": "48202",
			"img":"https://i.imgur.com/02uRqKM.png",
			"html": "<h3>Woodward & Euclid - Citgo Gas Station</h3><img src='https://www.getcoins.com/api/img/usa/mi/MI_100475.jpg' class='img-responsive gc_map_info-window_img'><br /><p>8351 Woodward Ave <br> Detroit, MI 48202 <br> <b>Mon-Sun:</b> 24 Hours<br><b>Buy</b> and <b>Sell</b> Bitcoin and Litecoin Here </p>",
			"zoom": 12,
			"hours": [
				[[0, 24]],
				[[0, 24]],
				[[0, 24]],
				[[0, 24]],
				[[0, 24]],
				[[0, 24]],
				[[0, 24]]
			]
		},
		{
			"id": "100568",
			"lat": 41.66426400,
			"lng": -83.56960200,
			"title": "Monroe St - Sunoco Gas Station",
			"name": "SunocoGas Station",
			"country": "USA",
			"region": "Ohio",
			"state": "Ohio",
			"city": "Toledo",
			"street": "2933 Monroe St",
			"zipcode": "43606",
			"img":"https://i.imgur.com/LICwOKR.png",
			"html": "<h3>Monroe St - Sunoco Gas Station</h3><img src='https://www.getcoins.com/api/img/usa/oh/OH_100568.jpg' class='img-responsive gc_map_info-window_img'><br /><p>2933 Monroe St<br> Toledo, OH 43606 <br> <b>Mon-Sun:</b> 24 Hours<br><b>Buy</b> Bitcoin and Litecoin Here </p>",
			"zoom": 12,
			"hours": [
				[[0, 24]],
				[[0, 24]],
				[[0, 24]],
				[[0, 24]],
				[[0, 24]],
				[[0, 24]],
				[[0, 24]]
			]
		},
		{
			"id": "100565",
			"lat": 42.44943200,
			"lng": -82.96714100,
			"title": "8 Mile & Gratiot Ave - Gulf Gas Station",
			"name": "Gulf Gas Station",
			"country": "USA",
			"region": "Michigan",
			"state": "Michigan",
			"city": "Detroit",
			"street": "15000 E 8 Mile Rd",
			"zipcode": "48205",
			"img":"https://i.imgur.com/3P7KpTf.png",
			"html": "<h3>8 Mile & Gratiot Ave - Gulf Gas Station</h3><img src='https://www.getcoins.com/api/img/usa/mi/MI_100565.jpg' class='img-responsive gc_map_info-window_img'><br /><p>15000 E 8 Mile Rd <br> Detroit, MI 48205 <br> <b>Mon-Sun:</b> 24 Hours<br><b>Buy</b> and <b>Sell</b> Bitcoin and Litecoin Here </p>",
			"zoom": 12,
			"hours": [
				[[0, 24]],
				[[0, 24]],
				[[0, 24]],
				[[0, 24]],
				[[0, 24]],
				[[0, 24]],
				[[0, 24]]
			]
		},
		{
			"id": "100439",
			"lat": 42.43090300,
			"lng": -83.17025400,
			"title": "7 Mile & Meyers Rd - Mobil Gas Station",
			"name": "Mobil Gas Station",
			"country": "USA",
			"region": "Michigan",
			"state": "Michigan",
			"city": "Detroit",
			"street": "10833 W 7 Mile Rd",
			"zipcode": "48221",
			"img":"https://i.imgur.com/yDjwA6R.png",
			"html": "<h3>7 Mile & Meyers Rd - Mobil Gas Station</h3><img src='https://www.getcoins.com/api/img/usa/mi/MI_100439.jpg' class='img-responsive gc_map_info-window_img'><br /><p>10833 W 7 Mile Rd <br> Detroit, MI 48221 <br> <b>Mon-Sun:</b> 24 Hours<br><b>Buy</b> and <b>Sell</b> Bitcoin and Litecoin Here </p>",
			"zoom": 12,
			"hours": [
				[[0, 24]],
				[[0, 24]],
				[[0, 24]],
				[[0, 24]],
				[[0, 24]],
				[[0, 24]],
				[[0, 24]]
			]
		},
		{
			"id": "100453",
			"lat": 42.48021800,
			"lng": -83.22094900,
			"title": "10 Mile & Southfield Rd - Shell Gas Station",
			"name": "Shell Gas Station",
			"country": "USA",
			"region": "Michigan",
			"state": "Michigan",
			"city": "Southfield",
			"street": "25826 Southfield Rd",
			"zipcode": "48075",
			"img":"https://i.imgur.com/28yvAE0.png",
			"html": "<h3>10 Mile & Southfield Rd - Shell Gas Station</h3><img src='https://www.getcoins.com/api/img/usa/mi/MI_100453.jpg' class='img-responsive gc_map_info-window_img'><br /><p>25826 Southfield Rd <br> Southfield, MI 48075 <br> <b>Mon-Sun:</b> 5:00 am - 11:00 pm<br><b>Buy</b> and <b>Sell</b> Bitcoin and Litecoin Here </p>",
			"zoom": 12,
			"hours": [
				[[5, 23]],
				[[5, 23]],
				[[5, 23]],
				[[5, 23]],
				[[5, 23]],
				[[5, 23]],
				[[5, 23]]
			]
		},
		{
			"id": "100394",
			"lat": 42.38701000,
			"lng": -83.13909300,
			"title": "Livernois & Davidson - Pure Gas Station",
			"name":"Pure Gas Station",
			"country": "USA",
			"region": "Michigan",
			"state": "Michigan",
			"city": "Detroit",
			"street": "13500 Livernois Ave",
			"zipcode": "48238",
			"img":"https://i.imgur.com/0scpjyL.png",
			"html": "<h3>Livernois & Davidson - Pure Gas Station</h3><img src='https://www.getcoins.com/api/img/usa/mi/MI_100394.jpg' class='img-responsive gc_map_info-window_img'><br /><p>13500 Livernois Ave <br> Detroit, MI 48238 <br> <b>Mon-Sun:</b> 24 Hours<br><b>Buy</b> Bitcoin and Litecoin Here </p>",
			"zoom": 12,
			"hours": [
				[[0, 24]],
				[[0, 24]],
				[[0, 24]],
				[[0, 24]],
				[[0, 24]],
				[[0, 24]],
				[[0, 24]]
			]
		},
		{
			"id": "101340",
			"lat": 42.20401400,
			"lng": -83.26788100,
			"title": "Telegraph Rd & Eureka Rd - 76 Gas Station",
			"name":"76 Gas Station",
			"country": "USA",
			"region": "Michigan",
			"state": "Michigan",
			"city": "Taylor",
			"street": "14055 Telegraph Rd",
			"zipcode": "48180",
			"img":"https://i.imgur.com/7StukAk.png",
			"html": "<h3>Telegraph Rd & Eureka Rd - 76 Gas Station</h3><img src='https://www.getcoins.com/api/img/usa/mi/MI_101340.jpg' class='img-responsive gc_map_info-window_img'><br /><p>14055 Telegraph Rd <br> Taylor, MI 48180 <br> <b>Mon-Sun:</b> 24 Hours<br><b>Buy</b> Bitcoin and Litecoin Here </p>",
			"zoom": 12,
			"hours": [
				[[0, 24]],
				[[0, 24]],
				[[0, 24]],
				[[0, 24]],
				[[0, 24]],
				[[0, 24]],
				[[0, 24]]
			]
		},
		{
			"id": "101341",
			"lat": 42.25572400,
			"lng": -83.27286500,
			"title": "Telegraph Rd & Ecorse Rd - Marathon Gas Station",
			"name": "Marathon Gas Station",
			"country": "USA",
			"region": "Michigan",
			"state": "Michigan",
			"city": "Taylor",
			"street": "24344 Ecorse Rd",
			"zipcode": "48180",
			"img":"https://i.imgur.com/MxcpJM4.png",
			"html": "<h3>Telegraph Rd & Ecorse Rd - Marathon Gas Station</h3><img src='https://www.getcoins.com/api/img/usa/mi/MI_101341.jpg' class='img-responsive gc_map_info-window_img'><br /><p>24344 Ecorse Rd <br> Taylor, MI 48180 <br> <b>Mon-Sun:</b> 24 Hours<br><b>Buy</b> Bitcoin and Litecoin Here </p>",
			"zoom": 12,
			"hours": [
				[[0, 24]],
				[[0, 24]],
				[[0, 24]],
				[[0, 24]],
				[[0, 24]],
				[[0, 24]],
				[[0, 24]]
			]
		},
		{
			"id": "101345",
			"lat": 53.81802170,
			"lng": -3.05296980,
			"title": "Blackpool - World Travel Lounge",
			"name": "World Travel Lounge",
			"country": "UK",
			"region": "UK",
			"state": "Lancashire",
			"city": "Blackpool",
			"street": "11 Birley street",
			"zipcode": "Fy1 1eg",
			"img": "https://i.imgur.com/OvWN6oN.png",
			"html": "<h3>Blackpool - World Travel Lounge</h3><img src='https://www.getcoins.com/api/img/uk/UK_101345.jpg' class='img-responsive gc_map_info-window_img'><br /><p>11 Birley street<br> Blackpool, UK Fy1 1eg<br> <b>Mon-Sat:</b> 9:00 am – 5:30 pm<br><b>Sun:</b> 11:00 am – 4:00 pm<br> <b>Buy</b> and <b>Sell</b> Bitcoin and Litecoin Here</p>",
			"zoom": 12,
			"hours": [
				[[11,16]],
				[[9,17.5]],
				[[9,17.5]],
				[[9,17.5]],
				[[9,17.5]],
				[[9,17.5]],
				[[9,17.5]]
			]
		},
		{
			"id": "101344",
			"lat": 51.374600,
			"lng": -0.095100,
			"title": "Croydon - George St. Off Licence",
			"name": "George St. Off Licence",
			"country": "UK",
			"region": "UK",
			"state": "London",
			"city": "Croydon",
			"street": "73 George St",
			"zipcode": "CR0 1LD",
			"img":"https://i.imgur.com/GaUALaW.jpg",
			"html": "<h3>Croydon - George St. Off Licence</h3><img src='https://www.getcoins.com/api/img/uk/UK_101344.jpg' class='img-responsive gc_map_info-window_img'><br /><p>73 George St<br> Croydon, UK CR0 1LD<br> <b>Mon-Sun:</b> 24 Hours<br> <b>Buy</b> and <b>Sell</b> Bitcoin and Litecoin Here</p>",
			"zoom": 12,
			"hours": [
			  [[0, 24]],
			  [[0, 24]],
			  [[0, 24]],
			  [[0, 24]],
			  [[0, 24]],
			  [[0, 24]],
			  [[0, 24]]
			]
		},
		{
			"id": "101343",
			"lat": 51.538437,
			"lng": -0.141798,
			"title": "Camden - Camden Local Store",
			"name": "Camden Local Store",
			"country": "UK",
			"region": "UK",
			"state": "London",
			"city": "Camden",
			"street": "146 Camden High St",
			"zipcode": "NW1 0NE",
			"img":"https://i.imgur.com/dh6fsCV.jpg",
			"html": "<h3>Camden - Camden Local Store</h3><img src='https://www.getcoins.com/api/img/uk/UK_101343.jpg' class='img-responsive gc_map_info-window_img'><br /><p>146 Camden High St<br> Camden, UK NW1 0NE<br> <b>Mon-Sun:</b> 24 Hours<br> <b>Buy</b> and <b>Sell</b> Bitcoin and Litecoin Here</p>",
			"zoom": 12,
			"hours": [
			[[0, 24]],
			[[0, 24]],
			[[0, 24]],
			[[0, 24]],
			[[0, 24]],
			[[0, 24]],
			[[0, 24]]
			]
		}
	]
}
